Date,Name,Start,End,Duration,Latitude,Longitude,Category,Link
10/7/14,Home,2014-10-07T00:00:00+02:00,2014-10-07T11:58:02+02:00,43082,49.8819996044,8.6702592175,Home,
10/7/14,H Karlshof,2014-10-07T12:03:40+02:00,2014-10-07T12:09:20+02:00,340,49.882194,8.665967,,http://foursquare.com/venue/4d31931eb60937045413eddf
10/7/14,Place in Darmstadt,2014-10-07T12:22:38+02:00,2014-10-07T13:37:34+02:00,4496,49.8728270312,8.6551163231,,
10/7/14,KOM Lab,2014-10-07T13:44:30+02:00,2014-10-07T14:00:49+02:00,979,49.8742715717,8.6605648722,Work,
10/7/14,Place in Studentenwohnheim Karlshof,2014-10-07T14:08:48+02:00,2014-10-08T00:00:00+02:00,35472,49.8824855756,8.6697071135,,
