Date,Name,Start,End,Duration,Latitude,Longitude,Category,Link
10/28/14,Home,2014-10-28T00:00:00+01:00,2014-10-28T08:47:03+01:00,31623,49.8819996044,8.6702592175,Home,
10/28/14,KOM Lab,2014-10-28T09:01:40+01:00,2014-10-28T09:33:43+01:00,1923,49.8742715717,8.6605648722,Work,
10/28/14,Place in Otto-Berndt-Halle/Mensa,2014-10-28T09:44:27+01:00,2014-10-28T09:54:20+01:00,593,49.8756925327,8.657246535,,
10/28/14,Volleyball field of Karlshof,2014-10-28T10:15:34+01:00,2014-10-28T12:41:55+01:00,8781,49.8826210232,8.6675185755,,
10/28/14,H Karlshof,2014-10-28T12:47:05+01:00,2014-10-28T12:52:45+01:00,340,49.882194,8.665967,,http://foursquare.com/venue/4d31931eb60937045413eddf
10/28/14,KOM Lab,2014-10-28T13:00:14+01:00,2014-10-28T18:42:07+01:00,20513,49.8742715717,8.6605648722,Work,
10/28/14,KOM Lab,2014-10-28T18:46:42+01:00,2014-10-28T18:52:11+01:00,329,49.8742715717,8.6605648722,Work,
10/28/14,Place in Darmstadt,2014-10-28T19:03:52+01:00,2014-10-28T19:07:46+01:00,234,49.8853907879,8.6710590028,,
10/28/14,Home,2014-10-28T19:13:14+01:00,2014-10-29T00:00:00+01:00,17206,49.8819996044,8.6702592175,Home,
